{
"type": "FeatureCollection",
"crs": { "type": "name", "properties": { "name": "urn:ogc:def:crs:OGC:1.3:CRS84" } },
                                                                                
"features": [
{ "type": "Feature", "properties": { "Name": "Rhodia Inc:<br><\/br> 1020 State St Chicago Heights IL 60411", "descriptio": "<p>NAICS: 325180\n.", "timestamp": null, "begin": null, "end": null, "altitudeMo": "relativeToGround", "tessellate": -1, "extrude": 1, "visibility": 0, "drawOrder": null, "icon": null }, "geometry": { "type": "Point", "coordinates": [ -87.618543, 41.512845, 263.89164546 ] } },
{ "type": "Feature", "properties": { "Name": "Flint Hills Resources Chemical Intermediates LLC:<br><\/br> 23425 W Amoco Rd Channahon IL 60410", "descriptio": "<p>NAICS: 325130\n.", "timestamp": null, "begin": null, "end": null, "altitudeMo": "relativeToGround", "tessellate": -1, "extrude": 1, "visibility": 0, "drawOrder": null, "icon": null }, "geometry": { "type": "Point", "coordinates": [ -88.174324, 41.446382, 1381.723539600000095 ] } },
{ "type": "Feature", "properties": { "Name": "Occidental Chemical Corp:<br><\/br> 4201 W 69th St Chicago IL 60629-5718", "descriptio": "<p>NAICS: 325130\n.", "timestamp": null, "begin": null, "end": null, "altitudeMo": "relativeToGround", "tessellate": -1, "extrude": 1, "visibility": 0, "drawOrder": null, "icon": null }, "geometry": { "type": "Point", "coordinates": [ -87.728053, 41.766813, 77.067669173 ] } },
{ "type": "Feature", "properties": { "Name": "PVS Chemicals Inc (Illinois):<br><\/br> 12260 S Carondolet Ave Chicago IL 60633", "descriptio": "<p>NAICS: 325130\n.", "timestamp": null, "begin": null, "end": null, "altitudeMo": "relativeToGround", "tessellate": -1, "extrude": 1, "visibility": 0, "drawOrder": null, "icon": null }, "geometry": { "type": "Point", "coordinates": [ -87.550945, 41.672205, 1.8796992481 ] } },
{ "type": "Feature", "properties": { "Name": "Rohm & Haas Chemicals LLC:<br><\/br> 1645 S Kilbourn Ave Chicago IL 60623", "descriptio": "<p>NAICS: 325320\n.", "timestamp": null, "begin": null, "end": null, "altitudeMo": "relativeToGround", "tessellate": -1, "extrude": 1, "visibility": 0, "drawOrder": null, "icon": null }, "geometry": { "type": "Point", "coordinates": [ -87.736356, 41.857692, 1.0452621457 ] } },
{ "type": "Feature", "properties": { "Name": "Nalco Co:<br><\/br> 1601 Diehl Rd Naperville IL 60563-1198", "descriptio": "<p>NAICS: 325998\n.", "timestamp": null, "begin": null, "end": null, "altitudeMo": "relativeToGround", "tessellate": -1, "extrude": 1, "visibility": 0, "drawOrder": null, "icon": null }, "geometry": { "type": "Point", "coordinates": [ -88.197169, 41.801009, 15.962984384 ] } },
{ "type": "Feature", "properties": { "Name": "Matchless Metal Polish Co:<br><\/br> 840 W 49th Pl Chicago IL 60609", "descriptio": "<p>NAICS: 325998\n.", "timestamp": null, "begin": null, "end": null, "altitudeMo": "relativeToGround", "tessellate": -1, "extrude": 1, "visibility": 0, "drawOrder": null, "icon": null }, "geometry": { "type": "Point", "coordinates": [ -87.647159, 41.804554, 0.1650052053 ] } },
{ "type": "Feature", "properties": { "Name": "WR Grace & Co:<br><\/br> 6051 W 65th St Bedford Park IL 60638", "descriptio": "<p>NAICS: 325998\n.", "timestamp": null, "begin": null, "end": null, "altitudeMo": "relativeToGround", "tessellate": -1, "extrude": 1, "visibility": 0, "drawOrder": null, "icon": null }, "geometry": { "type": "Point", "coordinates": [ -87.774255, 41.773132, 1.3066573308 ] } },
{ "type": "Feature", "properties": { "Name": "Blue Island Phenol LLC:<br><\/br> 3350 W 131st St Alsip IL 60406", "descriptio": "<p>NAICS: 325194\n.", "timestamp": null, "begin": null, "end": null, "altitudeMo": "relativeToGround", "tessellate": -1, "extrude": 1, "visibility": 0, "drawOrder": null, "icon": null }, "geometry": { "type": "Point", "coordinates": [ -87.705559, 41.656662, 54.655870445 ] } },
{ "type": "Feature", "properties": { "Name": "Vantage Oleochemicals Inc:<br><\/br> 4650 S Racine Chicago IL 60609", "descriptio": "<p>NAICS: 325998\n.", "timestamp": null, "begin": null, "end": null, "altitudeMo": "relativeToGround", "tessellate": -1, "extrude": 1, "visibility": 0, "drawOrder": null, "icon": null }, "geometry": { "type": "Point", "coordinates": [ -87.656351, 41.809983, 88.92539039899999 ] } },
{ "type": "Feature", "properties": { "Name": "CA Acquisition LLC:<br><\/br> 1300 E North St Coal City IL 60416-1254", "descriptio": "<p>NAICS: 325998\n.", "timestamp": null, "begin": null, "end": null, "altitudeMo": "relativeToGround", "tessellate": -1, "extrude": 1, "visibility": 0, "drawOrder": null, "icon": null }, "geometry": { "type": "Point", "coordinates": [ -88.272647, 41.297516, 2.7472527473 ] } },
{ "type": "Feature", "properties": { "Name": "KA Steel Chemicals Inc:<br><\/br> 15185 Main St Lemont IL 60439-3773", "descriptio": "<p>NAICS: 325180\n.", "timestamp": null, "begin": null, "end": null, "altitudeMo": "relativeToGround", "tessellate": -1, "extrude": 1, "visibility": 0, "drawOrder": null, "icon": null }, "geometry": { "type": "Point", "coordinates": [ -87.989859, 41.680941, 3.8086871024 ] } },
{ "type": "Feature", "properties": { "Name": "Pelron Corp:<br><\/br> 7847 W 47th St Lyons IL 60534", "descriptio": "<p>NAICS: 325998\n.", "timestamp": null, "begin": null, "end": null, "altitudeMo": "relativeToGround", "tessellate": -1, "extrude": 1, "visibility": 0, "drawOrder": null, "icon": null }, "geometry": { "type": "Point", "coordinates": [ -87.816257, 41.805732, 2.8918449971 ] } },
{ "type": "Feature", "properties": { "Name": "Apollo Colors Inc:<br><\/br> 1550 Mound Rd Rockdale IL 60436-2800", "descriptio": "<p>NAICS: 325130\n.", "timestamp": null, "begin": null, "end": null, "altitudeMo": "relativeToGround", "tessellate": -1, "extrude": 1, "visibility": 0, "drawOrder": null, "icon": null }, "geometry": { "type": "Point", "coordinates": [ -88.122259, 41.500651, 1.8796992481 ] } },
{ "type": "Feature", "properties": { "Name": "Diversified CPC International Inc:<br><\/br> 24338 W Durkee Rd Channahon IL 60410", "descriptio": "<p>NAICS: 325998\n.", "timestamp": null, "begin": null, "end": null, "altitudeMo": "relativeToGround", "tessellate": -1, "extrude": 1, "visibility": 0, "drawOrder": null, "icon": null }, "geometry": { "type": "Point", "coordinates": [ -88.202261, 41.411431, 8.247541931800001 ] } },
{ "type": "Feature", "properties": { "Name": "MAGNETICS INTERNATIONAL, INC.:<br><\/br> 1111 NORTH STATE ROAD 149 BURNS HARBOR IN 46304", "descriptio": "<p>NAICS: 325180\n.", "timestamp": null, "begin": null, "end": null, "altitudeMo": "relativeToGround", "tessellate": -1, "extrude": 1, "visibility": 0, "drawOrder": null, "icon": null }, "geometry": { "type": "Point", "coordinates": [ -87.123574, 41.599684, 13.195488722 ] } },
{ "type": "Feature", "properties": { "Name": "American Oxide Company AMROX:<br><\/br> 6300 US Hwy 12 Portage IN 46368", "descriptio": "<p>NAICS: 325998\n.", "timestamp": null, "begin": null, "end": null, "altitudeMo": "relativeToGround", "tessellate": -1, "extrude": 1, "visibility": 0, "drawOrder": null, "icon": null }, "geometry": { "type": "Point", "coordinates": [ -87.170299, 41.62652, 28.212839792 ] } },
{ "type": "Feature", "properties": { "Name": "Carus Chemical Co:<br><\/br> 1500 Eighth St La Salle IL 61301-3500", "descriptio": "<p>NAICS: 325130\n.", "timestamp": null, "begin": null, "end": null, "altitudeMo": "relativeToGround", "tessellate": -1, "extrude": 1, "visibility": 0, "drawOrder": null, "icon": null }, "geometry": { "type": "Point", "coordinates": [ -89.086983, 41.337245, 32.209189532 ] } },
{ "type": "Feature", "properties": { "Name": "Roquette America Inc:<br><\/br> 1550 Northwestern Ave Gurnee IL 60031", "descriptio": "<p>NAICS: 325998\n.", "timestamp": null, "begin": null, "end": null, "altitudeMo": "relativeToGround", "tessellate": -1, "extrude": 1, "visibility": 0, "drawOrder": null, "icon": null }, "geometry": { "type": "Point", "coordinates": [ -87.896674, 42.380822, 999.132446500000015 ] } },
{ "type": "Feature", "properties": { "Name": "Radco Industries:<br><\/br> 39W 930 Midan Dr LaFox IL 60147", "descriptio": "<p>NAICS: 325998\n.", "timestamp": null, "begin": null, "end": null, "altitudeMo": "relativeToGround", "tessellate": -1, "extrude": 1, "visibility": 0, "drawOrder": null, "icon": null }, "geometry": { "type": "Point", "coordinates": [ -88.393277, 41.884128, 0.0536798728 ] } },
{ "type": "Feature", "properties": { "Name": "Nanochem Solutions Inc:<br><\/br> 5350 Donlar Ave Peru IL 61354", "descriptio": "<p>NAICS: 325998\n.", "timestamp": null, "begin": null, "end": null, "altitudeMo": "relativeToGround", "tessellate": -1, "extrude": 1, "visibility": 0, "drawOrder": null, "icon": null }, "geometry": { "type": "Point", "coordinates": [ -89.141984, 41.375784, 0.3614806246 ] } },
{ "type": "Feature", "properties": { "Name": "Coral Chemical Co:<br><\/br> 135 Lebaron St Waukegan IL 60085", "descriptio": "<p>NAICS: 325998\n.", "timestamp": null, "begin": null, "end": null, "altitudeMo": "relativeToGround", "tessellate": -1, "extrude": 1, "visibility": 0, "drawOrder": null, "icon": null }, "geometry": { "type": "Point", "coordinates": [ -87.880641, 42.362653, 0.3423967174 ] } },
{ "type": "Feature", "properties": { "Name": "INEOS USA LLC:<br><\/br> 2357 Standard Ave Whiting IN 46394", "descriptio": "<p>NAICS: 325199\n.", "timestamp": null, "begin": null, "end": null, "altitudeMo": "relativeToGround", "tessellate": -1, "extrude": 1, "visibility": 0, "drawOrder": null, "icon": null }, "geometry": { "type": "Point", "coordinates": [ -87.472802, 41.669689, 57.063722658 ] } },
{ "type": "Feature", "properties": { "Name": "Chicago Aerosol-Bridgeview Facility:<br><\/br> 8407 S 77th Ave Bridgeview IL 60455", "descriptio": "<p>NAICS: 325998\n.", "timestamp": null, "begin": null, "end": null, "altitudeMo": "relativeToGround", "tessellate": -1, "extrude": 1, "visibility": 0, "drawOrder": null, "icon": null }, "geometry": { "type": "Point", "coordinates": [ -87.8106, 41.739, 0.1445922499 ] } },
{ "type": "Feature", "properties": { "Name": "Chase Products Co:<br><\/br> 19th and Gardner Rd Broadview IL 60155", "descriptio": "<p>NAICS: 325998\n.", "timestamp": null, "begin": null, "end": null, "altitudeMo": "relativeToGround", "tessellate": -1, "extrude": 1, "visibility": 0, "drawOrder": null, "icon": null }, "geometry": { "type": "Point", "coordinates": [ -87.86656, 41.853331, 0.6468600347 ] } },
{ "type": "Feature", "properties": { "Name": "GE Betz Inc:<br><\/br> 333 S Lombard Rd Addison IL 60101", "descriptio": "<p>NAICS: 325998\n.", "timestamp": null, "begin": null, "end": null, "altitudeMo": "relativeToGround", "tessellate": -1, "extrude": 1, "visibility": 0, "drawOrder": null, "icon": null }, "geometry": { "type": "Point", "coordinates": [ -88.024067, 41.920929, 0.5783689994 ] } },
{ "type": "Feature", "properties": { "Name": "Daubert Chemical Co:<br><\/br> 4700 S Central Ave Chicago IL 60638", "descriptio": "<p>NAICS: 325520\n.", "timestamp": null, "begin": null, "end": null, "altitudeMo": "relativeToGround", "tessellate": -1, "extrude": 1, "visibility": 0, "drawOrder": null, "icon": null }, "geometry": { "type": "Point", "coordinates": [ -87.763555, 41.808502, 9.641541353399999 ] } },
{ "type": "Feature", "properties": { "Name": "Emco Chemical Distributors Inc:<br><\/br> 2100 Commonwealth Ave North Chicago IL 60064", "descriptio": "<p>NAICS: 325998\n.", "timestamp": null, "begin": null, "end": null, "altitudeMo": "relativeToGround", "tessellate": -1, "extrude": 1, "visibility": 0, "drawOrder": null, "icon": null }, "geometry": { "type": "Point", "coordinates": [ -87.847071, 42.320402, 0.043377675 ] } },
{ "type": "Feature", "properties": { "Name": "Chroma Corp:<br><\/br> 3900 Dayton St McHenry IL 60050", "descriptio": "<p>NAICS: 325130\n.", "timestamp": null, "begin": null, "end": null, "altitudeMo": "relativeToGround", "tessellate": -1, "extrude": 1, "visibility": 0, "drawOrder": null, "icon": null }, "geometry": { "type": "Point", "coordinates": [ -88.274037, 42.311151, 25.114648641 ] } },
{ "type": "Feature", "properties": { "Name": "Stepan Co:<br><\/br> 22500 W Millsdale Rd Elwood IL 60421", "descriptio": "<p>NAICS: 325998\n.", "timestamp": null, "begin": null, "end": null, "altitudeMo": "relativeToGround", "tessellate": -1, "extrude": 1, "visibility": 0, "drawOrder": null, "icon": null }, "geometry": { "type": "Point", "coordinates": [ -88.1597, 41.4417, 127.58675535 ] } },
{ "type": "Feature", "properties": { "Name": "Koppers Inc:<br><\/br> 3900 S Laramie Ave Cicero IL 60804", "descriptio": "<p>NAICS: 325130\n.", "timestamp": null, "begin": null, "end": null, "altitudeMo": "relativeToGround", "tessellate": -1, "extrude": 1, "visibility": 0, "drawOrder": null, "icon": null }, "geometry": { "type": "Point", "coordinates": [ -87.748655, 41.820632, 52.422151533 ] } },
{ "type": "Feature", "properties": { "Name": "W R  GRACE & CO    CONN:<br><\/br> 5215 KENNEDY AVE East Chicago IN 46312", "descriptio": "<p>NAICS: 325180\n.", "timestamp": null, "begin": null, "end": null, "altitudeMo": "relativeToGround", "tessellate": -1, "extrude": 1, "visibility": 0, "drawOrder": null, "icon": null }, "geometry": { "type": "Point", "coordinates": [ -87.461148, 41.618723, 317.247009830000025 ] } },
{ "type": "Feature", "properties": { "Name": "Ester Solutions:<br><\/br> 5851 W 73rd St Bedford Park IL 60638", "descriptio": "<p>NAICS: 325998\n.", "timestamp": null, "begin": null, "end": null, "altitudeMo": "relativeToGround", "tessellate": -1, "extrude": 1, "visibility": 0, "drawOrder": null, "icon": null }, "geometry": { "type": "Point", "coordinates": [ -87.767414, 41.758689, 3.7258157895 ] } },
{ "type": "Feature", "properties": { "Name": "Solvay USA Incorporated:<br><\/br> 2000 Michigan St Hammond IN 46320", "descriptio": "<p>NAICS: 325998\n.", "timestamp": null, "begin": null, "end": null, "altitudeMo": "relativeToGround", "tessellate": -1, "extrude": 1, "visibility": 0, "drawOrder": null, "icon": null }, "geometry": { "type": "Point", "coordinates": [ -87.479749, 41.610002, 132.32764604 ] } },
{ "type": "Feature", "properties": { "Name": "Equistar Chemicals LP:<br><\/br> 8805 N Tabler Rd Morris IL 60450", "descriptio": "<p>NAICS: 325998\n.", "timestamp": null, "begin": null, "end": null, "altitudeMo": "relativeToGround", "tessellate": -1, "extrude": 1, "visibility": 0, "drawOrder": null, "icon": null }, "geometry": { "type": "Point", "coordinates": [ -88.329773, 41.412897, 2568.0506507 ] } },
{ "type": "Feature", "properties": { "Name": "Akzo Nobel Surface Chemistry LLC:<br><\/br> 8005 N Tabler Rd Morris IL 60450", "descriptio": "<p>NAICS: 325998\n.", "timestamp": null, "begin": null, "end": null, "altitudeMo": "relativeToGround", "tessellate": -1, "extrude": 1, "visibility": 0, "drawOrder": null, "icon": null }, "geometry": { "type": "Point", "coordinates": [ -88.336066, 41.406491, 72.10815500299999 ] } },
{ "type": "Feature", "properties": { "Name": "DOVER CHEMICAL   HAMMOND WORKS:<br><\/br> 3000 Sheffield Ave Hammond IN 46320", "descriptio": "<p>NAICS: 325199\n.", "timestamp": null, "begin": null, "end": null, "altitudeMo": "relativeToGround", "tessellate": -1, "extrude": 1, "visibility": 0, "drawOrder": null, "icon": null }, "geometry": { "type": "Point", "coordinates": [ -87.5138, 41.6594, 12.382721226 ] } },
{ "type": "Feature", "properties": { "Name": "Dynagel Inc:<br><\/br> 10 Wentworth Ave Calumet City IL 60409", "descriptio": "<p>NAICS: 325998\n.", "timestamp": null, "begin": null, "end": null, "altitudeMo": "relativeToGround", "tessellate": -1, "extrude": 1, "visibility": 0, "drawOrder": null, "icon": null }, "geometry": { "type": "Point", "coordinates": [ -87.530043, 41.626625, 13.538032099 ] } },
{ "type": "Feature", "properties": { "Name": "Nalco Co:<br><\/br> 6216 W 66th Place Bedford Park IL 60638", "descriptio": "<p>NAICS: 325998\n.", "timestamp": null, "begin": null, "end": null, "altitudeMo": "relativeToGround", "tessellate": -1, "extrude": 1, "visibility": 0, "drawOrder": null, "icon": null }, "geometry": { "type": "Point", "coordinates": [ -87.776255, 41.771732, 80.8451417 ] } },
{ "type": "Feature", "properties": { "Name": "Butterfield Color Inc:<br><\/br> 625 W Illinois Ave Aurora IL 60506", "descriptio": "<p>NAICS: 325998\n.", "timestamp": null, "begin": null, "end": null, "altitudeMo": "relativeToGround", "tessellate": -1, "extrude": 1, "visibility": 0, "drawOrder": null, "icon": null }, "geometry": { "type": "Point", "coordinates": [ -88.330909, 41.770966, 21.951727877 ] } }
]
}
